City,Lat,Lng,Max Temp,Humidity,Cloudiness,Wind Speed
albany,42.6001,-73.9662,287.04,89,88,1.14
ushuaia,-54.8,-68.3,275.15,80,40,10.29
sao jose da coroa grande,-8.8978,-35.1478,298.54,80,34,2.5
lebu,-37.6167,-73.65,285.27,90,77,1.4
port keats,-14.25,129.55,304.53,56,34,2.31
mataura,-46.1927,168.8643,285.93,94,96,6.71
lipin bor,60.2622,37.9763,273.27,76,100,2.91
hasaki,35.7333,140.8333,290.37,100,75,3.6
migori,-1.0634,34.4731,291.46,83,72,4.51
esperance,-33.8667,121.9,303.15,13,98,10.29
komsomolskiy,40.4272,71.7189,302.15,16,0,1.03
can tho,10.0333,105.7833,301.15,89,40,0.51
busselton,-33.65,115.3333,293.71,77,100,7.15
georgetown,5.4112,100.3354,305.15,70,20,2.57
laguna,38.421,-121.4238,294.15,30,1,4.12
shirokiy,49.758,129.523,286.36,20,4,4.16
port alfred,-33.5906,26.891,292.55,86,100,7.72
thompson,55.7435,-97.8558,267.15,58,20,2.25
bagontapay,6.8589,124.9089,305.17,61,83,0.65
rikitea,-23.1203,-134.9692,297.5,69,74,4.38
ribeira grande,38.5167,-28.7,287.94,71,41,5.65
hobart,-42.8794,147.3294,294.15,43,40,5.14
antofagasta,-23.65,-70.4,288.15,82,0,1.54
vaini,-21.2,-175.2,299.15,89,75,3.09
longyearbyen,78.2186,15.6401,266.15,58,40,9.26
avera,33.194,-82.5271,292.15,74,1,2.57
mar del plata,-38.0023,-57.5575,289.82,94,0,3.6
vostok,46.4856,135.8833,284.63,21,5,3.69
kapaa,22.0752,-159.319,296.15,83,90,5.66
cape town,-33.9258,18.4232,287.59,87,20,3.6
nabire,-3.3667,135.4833,304.14,60,22,3.0
new norfolk,-42.7826,147.0587,292.59,75,66,0.89
khatanga,71.9667,102.5,274.34,98,100,3.73
barrow,71.2906,-156.7887,266.15,86,90,4.63
jamestown,42.097,-79.2353,290.15,94,90,3.09
tessalit,20.1986,1.0114,302.9,11,96,1.72
san cristobal,7.7669,-72.225,292.41,97,100,0.98
kudahuvadhoo,2.6708,72.8944,301.84,64,93,3.1
hermanus,-34.4187,19.2345,286.48,91,29,3.84
corrales,35.2378,-106.6067,280.93,93,90,2.06
yellowknife,62.456,-114.3525,267.15,63,75,5.14
talnakh,69.4865,88.3972,273.98,99,100,2.79
leh,34.1667,77.5833,279.73,37,54,1.13
atuona,-9.8,-139.0333,299.6,73,26,5.52
manokwari,-0.8667,134.0833,301.4,71,27,1.79
aklavik,68.2191,-135.0107,276.15,55,23,3.6
castro,-24.7911,-50.0119,284.06,95,24,2.99
ayan,56.45,138.1667,273.13,65,95,4.04
ponta do sol,32.6667,-17.1,287.59,80,68,0.89
tuatapere,-46.1333,167.6833,285.93,94,97,6.71
altay,47.8667,88.1167,291.01,48,46,0.66
richards bay,-28.783,32.0377,292.52,92,6,3.8
sola,-13.8833,167.55,300.26,67,98,9.79
black forest,39.0131,-104.7008,278.71,81,1,2.57
vardo,70.3705,31.1107,270.15,74,40,5.66
tiksi,71.6872,128.8694,272.86,84,16,2.99
jishui,33.7333,115.4,301.59,29,43,10.23
saint-augustin,51.226,-58.6502,276.95,96,100,0.69
dakar,14.6937,-17.4441,293.15,88,0,8.23
bandarbeyla,9.4942,50.8122,302.12,72,92,3.03
mbanza-ngungu,-5.25,14.8667,292.29,97,100,0.91
victoria,22.2855,114.1577,299.82,65,40,3.12
maragogi,-9.0122,-35.2225,298.24,81,36,2.05
chokurdakh,70.6333,147.9167,270.46,92,99,5.09
zhigansk,66.7697,123.3711,273.3,98,52,1.7
nikolskoye,59.7035,30.7861,277.59,60,0,2.0
nieuw nickerie,5.95,-56.9833,298.33,85,87,3.77
lasa,46.6166,10.7002,285.37,100,90,2.57
sisimiut,66.9395,-53.6735,275.18,61,100,2.91
voh,-20.9667,164.7,298.25,56,2,4.4
beringovskiy,63.05,179.3167,271.96,75,0,0.66
oropesa,-13.5928,-71.7719,281.62,92,84,2.11
saldanha,-33.0117,17.9442,282.15,93,20,0.51
faanui,-16.4833,-151.75,300.85,74,78,4.65
mahebourg,-20.4081,57.7,299.15,89,75,6.17
isangel,-19.55,169.2667,299.15,61,20,5.14
jalu,29.0331,21.5482,296.9,12,10,4.79
carnarvon,-24.8667,113.6333,300.15,65,1,4.63
lerwick,60.1545,-1.1494,276.15,87,75,6.17
le vauclin,14.5452,-60.8388,297.15,88,90,2.06
asau,46.4333,26.4,278.71,63,80,1.22
souillac,-20.5167,57.5167,299.15,89,75,6.17
butaritari,3.0707,172.7902,301.4,73,94,4.47
batagay-alyta,67.8006,130.4114,270.53,82,23,1.44
birao,10.2849,22.7882,299.4,56,100,0.17
constitucion,-35.3333,-72.4167,287.32,66,0,2.35
paka,4.6374,103.4368,302.15,84,40,1.03
itarema,-2.9248,-39.9167,297.77,88,100,3.07
camalu,30.85,-116.0667,285.93,59,0,0.45
kaitangata,-46.2817,169.8464,288.15,68,89,4.92
kahului,20.8947,-156.47,298.15,78,75,3.6
qurayyat,31.3318,37.3428,290.15,45,0,0.93
beidao,34.5686,105.8933,297.44,20,1,2.4
maningrida,-12.0667,134.2667,304.24,53,81,4.44
ozerne,50.1782,28.7338,278.85,68,40,5.0
tasiilaq,65.6145,-37.6368,272.15,100,90,1.54
thongwa,16.7619,96.5278,305.15,74,75,2.57
upernavik,72.7868,-56.1549,264.22,94,18,3.2
portales,34.1862,-103.3344,284.15,93,90,3.6
biak,-0.9131,122.8766,302.18,63,47,1.9
dingle,10.9995,122.6711,305.81,50,53,3.65
praia,14.9215,-23.5087,294.15,78,40,5.14
lubumbashi,-11.6609,27.4794,289.45,96,61,1.51
obo,5.3998,26.4869,293.59,95,100,1.55
punta arenas,-53.15,-70.9167,276.15,87,40,5.66
tura,25.5198,90.2201,309.83,20,43,2.56
waddan,29.1614,16.139,302.11,9,89,3.23
akureyri,65.6835,-18.0878,269.15,93,0,1.54
kaeo,-35.1,173.7833,291.48,66,63,1.34
zyryanka,65.75,150.85,274.08,87,100,2.14
megion,61.0296,76.1136,277.15,93,75,1.0
ust-omchug,61.15,149.6333,274.17,98,63,1.75
la ronge,55.1001,-105.2842,271.15,69,71,2.06
roald,62.5833,6.1333,276.15,75,0,6.69
grindavik,63.8424,-22.4338,277.15,87,75,3.6
klaksvik,62.2266,-6.589,276.15,75,60,5.14
palu,-0.8917,119.8707,302.67,80,43,1.56
twentynine palms,34.1356,-116.0542,295.37,8,1,4.63
ostersund,63.1792,14.6357,273.71,93,20,4.12
leningradskiy,69.3833,178.4167,270.74,74,100,0.49
saskylakh,71.9167,114.0833,274.12,87,94,4.52
saint george,37.1041,-113.5841,294.15,21,1,4.12
cabo san lucas,22.8909,-109.9124,293.71,69,18,2.24
tabat,-2.635,115.2274,308.31,43,67,0.81
sumenep,-7.0167,113.8667,302.83,64,33,4.08
bluff,-46.6,168.3333,285.93,94,96,6.71
tomatlan,19.9333,-105.25,294.57,92,67,0.3
carroll,39.5501,-77.0164,297.15,53,1,2.06
cayenne,4.9333,-52.3333,298.71,94,90,2.57
puerto ayora,-0.7393,-90.3518,296.93,90,35,2.22
lagoa,39.05,-27.9833,287.59,65,68,4.26
ahipara,-35.1667,173.1667,289.48,66,26,4.22
los llanos de aridane,28.6585,-17.9182,291.15,63,0,1.54
cherskiy,68.75,161.3,271.22,89,100,5.03
tabory,58.5198,64.5495,280.72,55,48,5.41
bow island,49.8668,-111.3684,287.15,35,77,5.14
lata,40.1629,-8.3327,287.59,76,98,1.79
tocopilla,-22.092,-70.1979,291.92,69,5,2.1
bonavista,48.6499,-53.1147,277.04,93,97,3.09
kodiak,57.79,-152.4072,280.15,87,90,3.09
gorontalo,0.5412,123.0595,304.34,62,57,2.6
ndele,8.4109,20.6473,298.13,68,100,1.11
yeppoon,-23.1333,150.7333,297.15,60,75,4.63
karratha,-20.7377,116.8463,306.6,22,0,5.21
tuktoyaktuk,69.4541,-133.0374,270.15,80,40,6.69
guerrero negro,27.9769,-114.0611,288.25,83,0,5.4
chorozinho,-4.3003,-38.4978,300.15,83,40,3.09
prince rupert,54.3161,-130.3201,282.15,93,90,6.69
lauria,40.0465,15.8358,286.3,66,21,1.78
hithadhoo,-0.6,73.0833,302.19,70,48,4.14
saint-philippe,-21.3585,55.7679,300.15,74,0,8.75
cefalu,38.0386,14.0229,290.93,58,46,0.89
candido mendes,-1.4467,-45.7167,296.54,92,100,0.32
carndonagh,55.25,-7.2667,276.82,90,100,1.76
bethel,41.3712,-73.414,288.15,93,100,2.48
kondagaon,19.6,81.6667,311.34,13,29,2.17
clemson,34.6834,-82.8374,292.04,100,1,1.53
pevek,69.7008,170.3133,269.52,83,99,2.01
yasothon,15.75,104.1333,303.15,66,75,4.63
hilo,19.7297,-155.09,300.15,57,75,2.06
sivaki,52.6333,126.75,284.75,26,100,5.24
mercedes,-34.6515,-59.4307,287.04,81,73,0.89
barahona,18.2085,-71.1008,296.26,80,26,2.44
villa maria,-32.4075,-63.2402,285.37,92,0,3.59
nata,8.3333,-80.5167,297.04,46,100,2.17
mozarlandia,-14.7447,-50.5706,295.91,58,64,2.78
rocha,-34.4833,-54.3333,284.74,90,0,1.83
bredasdorp,-34.5322,20.0403,285.15,87,17,2.06
seymchan,62.8833,152.4333,274.56,87,80,2.29
ulagan,50.6321,87.9563,290.13,48,62,3.32
warrnambool,-38.3833,142.4833,292.59,66,8,0.45
katherine,-14.4667,132.2667,305.15,43,75,4.63
itiuba,-10.6917,-39.8536,293.36,97,84,1.76
port elizabeth,-33.918,25.5701,290.15,77,75,9.77
nacozari,25.3366,-108.2574,291.48,63,0,2.24
qasigiannguit,68.8193,-51.1922,271.15,93,20,1.54
torbay,47.6666,-52.7314,276.48,93,90,5.14
avarua,-21.2078,-159.775,300.15,83,97,3.09
oranjemund,-28.55,16.4333,287.81,79,71,8.04
alofi,-19.0595,-169.9187,301.15,89,82,2.06
edd,13.9297,41.6925,303.59,62,84,2.89
dudinka,69.4058,86.1778,273.53,99,100,2.6
fukue,32.6881,128.8419,293.15,73,75,3.6
berlevag,70.8578,29.0864,271.15,80,75,4.63
falkenberg,56.9055,12.4912,276.48,75,0,2.57
sajanan,37.0573,9.2426,288.15,87,20,1.54
salalah,17.0151,54.0924,302.15,79,75,2.57
usinsk,65.9939,57.5281,272.23,69,95,4.2
pimentel,-6.8367,-79.9342,291.48,85,65,2.24
pangkalanbuun,-2.6833,111.6167,307.45,47,72,0.71
cockburn town,21.4612,-71.1419,298.48,76,70,9.32
sitka,57.0531,-135.33,282.15,81,90,3.09
zamora,-4.0692,-78.9567,292.9,97,97,0.48
fez,34.0372,-4.9998,286.15,94,75,1.03
yar-sale,66.8333,70.8333,266.52,90,87,3.17
udachnyy,66.4167,112.4,274.24,99,22,3.95
kapit,2.0167,112.9333,307.29,49,67,0.59
alice springs,-23.7,133.8833,297.15,20,0,5.14
ust-maya,60.4167,134.5333,276.74,91,100,1.44
kanigiri,15.4,79.5167,307.87,36,3,3.42
ramanuj ganj,23.8,83.7,314.29,5,18,2.27
iqaluit,63.7506,-68.5145,271.15,93,90,1.54
fortuna,40.5982,-124.1573,283.71,100,90,1.54
lima,-12.0432,-77.0282,291.48,94,90,2.57
dothan,31.2232,-85.3905,295.15,78,1,3.09
beihai,21.4833,109.1,298.83,60,99,4.5
nouakchott,18.0858,-15.9785,293.15,83,3,8.23
karaton,-6.3424,106.1045,306.15,55,20,4.63
awjilah,29.1081,21.2869,297.24,12,7,5.21
russkaya polyana,49.417,31.9201,281.25,61,14,4.55
siocon,7.7061,122.1353,302.72,71,62,0.86
kumluca,36.3703,30.2869,296.76,47,91,1.27
batagay,67.6333,134.6333,271.9,84,82,0.95
nantucket,41.2835,-70.0995,282.15,93,90,5.14
pangnirtung,66.1451,-65.7125,274.63,83,100,3.07
loikaw,19.6742,97.2094,304.12,46,8,1.27
san patricio,28.017,-97.5169,298.71,88,90,8.75
nhulunbuy,-12.2333,136.7667,303.15,58,75,4.63
clyde river,70.4692,-68.5914,268.15,100,90,3.09
lalsk,60.7415,47.5862,275.01,73,98,3.93
port hardy,50.6996,-127.4199,282.15,100,90,5.66
chitrakonda,18.1167,82.0833,310.36,23,37,2.19
chapais,49.7834,-74.8492,279.15,52,1,3.09
qaanaaq,77.484,-69.3632,265.9,84,98,3.36
kiruna,67.8557,20.2251,270.15,74,75,3.6
cartagena,10.3997,-75.5144,299.15,94,75,2.57
lahij,13.1667,44.5833,300.32,56,60,2.38
shingu,33.7333,135.9833,289.15,100,75,6.69
karpogory,64.0019,44.4451,274.51,51,46,2.01
denpasar,-8.65,115.2167,303.15,70,20,4.63
daraitan,14.6028,121.4319,306.15,55,40,3.09
devils lake,48.1128,-98.8651,276.15,70,20,6.17
waingapu,-9.6567,120.2641,302.2,53,27,3.0
srednekolymsk,67.45,153.6833,271.99,82,93,2.8
katete,-0.7818,29.7544,290.76,83,100,1.15
iquitos,-3.7481,-73.2472,296.15,94,75,0.51
khor,47.8861,134.9464,288.38,16,13,4.86
manuk mangkaw,4.8,119.85,302.19,66,22,1.31
dikson,73.5069,80.5464,265.0,87,96,4.15
fuling,29.7022,107.3919,299.43,49,5,1.25
longyan,25.1072,117.0225,301.0,43,22,0.95
harper,4.375,-7.7169,299.48,84,88,2.41
pechenga,69.5259,31.1703,268.15,80,20,5.14
khani,41.9563,42.9566,290.15,59,0,5.66
dingzhou,38.5131,114.9956,294.15,21,0,8.0
normandin,48.8333,-72.5321,282.15,46,100,3.6
yuncheng,35.0231,110.9928,300.32,18,43,8.93
vila velha,-20.3297,-40.2925,296.15,83,75,2.06
abu dhabi,24.4667,54.3667,306.15,29,0,1.03
coahuayana,18.7333,-103.6833,296.01,90,55,0.39
bonthe,7.5264,-12.505,299.56,79,89,1.36
general salgado,-20.6483,-50.3606,287.54,57,46,2.73
pochutla,15.7432,-96.4661,299.82,81,100,0.89
chuy,-33.6971,-53.4616,284.88,89,1,2.31
camargo,27.6667,-105.1667,289.84,21,0,6.96
bambous virieux,-20.3428,57.7575,299.15,89,75,6.17
falmouth,50.1544,-5.0711,279.15,93,20,3.37
flinders,-34.5833,150.8552,294.82,69,61,4.47
norman wells,65.282,-126.8329,271.15,43,20,7.72
meulaboh,4.1363,96.1285,302.71,68,90,2.36
cidreira,-30.1811,-50.2056,289.96,85,14,2.68
tarakan,3.3,117.6333,305.15,62,40,2.06
pacific grove,36.6177,-121.9166,288.15,88,3,0.75
sorland,67.667,12.6934,274.15,86,40,1.03
walvis bay,-22.9575,14.5053,288.15,94,90,3.6
port augusta,-32.5,137.7667,298.71,31,0,3.6
floresta,-8.6011,-38.5686,295.37,89,79,3.9
sambava,-14.2667,50.1667,298.67,82,10,4.47
acajutla,13.5928,-89.8275,300.28,70,100,1.22
gotsu,35.0,132.2167,288.15,88,75,4.63
yala,6.3333,101.25,304.15,70,20,3.6
husavik,66.0449,-17.3389,269.15,93,0,1.54
ballina,-28.8667,153.5667,296.15,64,40,4.12
ouadda,8.0777,22.4007,294.76,84,100,1.42
sao filipe,14.8961,-24.4956,295.53,78,60,3.78
kayes,14.0,-11.0,306.25,17,60,5.16
columbus,39.9612,-82.9988,291.48,94,90,3.6
east london,-33.0153,27.9116,290.15,88,75,5.14
hami,42.8,93.45,299.22,11,44,4.22
lumeje,-11.55,20.7833,291.71,84,77,1.34
dryden,49.7833,-92.7503,284.15,62,90,6.17
oxford,51.7522,-1.256,274.82,93,40,1.54
jackson,42.4165,-122.8345,294.15,30,1,0.56
wiwili,13.6268,-85.8254,295.08,74,100,1.56
dymytrove,48.6077,32.9835,280.15,65,0,3.0
kaa-khem,51.6833,94.7333,285.4,38,51,7.61
bengkulu,-3.8004,102.2655,302.21,68,89,2.8
barcelona,41.3888,2.159,288.15,94,75,2.06
tshikapa,-6.4167,20.8,295.27,89,100,0.67
medvezhyegorsk,62.9167,34.4667,275.55,59,57,2.84
ust-kulom,61.6864,53.6902,276.54,68,96,2.64
poum,-20.2333,164.0167,297.88,53,7,3.06
saint-pierre,-21.3393,55.4781,300.15,74,0,8.75
quatre cocos,-20.2078,57.7625,299.15,89,75,6.17
oktyabrskoye,43.0645,44.7417,287.15,82,16,2.0
hofn,64.2539,-15.2082,274.97,62,84,3.11
nanortalik,60.1432,-45.2371,274.7,94,52,1.91
deputatskiy,69.3,139.9,268.94,76,16,1.33
albacete,38.8333,-2.0,281.15,93,75,2.57
xinzhou,38.4092,112.7333,290.8,14,67,10.85
airai,-8.9266,125.4092,297.93,43,61,1.13
shimonoseki,33.95,130.95,291.48,88,75,4.63
lompoc,34.6391,-120.4579,285.93,87,0,2.57
carballo,43.213,-8.691,280.37,100,23,2.06
mulki,13.1,74.8,305.15,62,20,2.57
porbandar,21.6422,69.6093,302.15,74,20,3.09
la rioja,42.25,-2.5,282.15,93,90,2.57
steamboat springs,40.485,-106.8317,278.15,48,1,2.18
faya,18.3851,42.4509,289.15,72,40,2.12
kunming,25.0389,102.7183,295.93,52,20,2.0
kuusamo,65.9667,29.1833,269.15,86,75,4.12
codrington,-38.2667,141.9667,293.06,52,7,3.7
meckenheim,50.6333,7.0167,283.71,72,99,3.58
hryshkivtsi,49.9353,28.6038,278.85,69,51,5.09
sydney,-33.8679,151.2073,296.48,53,20,6.17
vestmannaeyjar,63.4427,-20.2734,279.1,72,100,4.0
erenhot,43.6475,111.9767,279.81,11,18,6.57
nome,64.5011,-165.4064,272.15,69,75,6.69
port lincoln,-34.7333,135.8667,295.09,42,7,2.68
am timan,11.0297,20.2827,301.04,51,80,2.92
mount gambier,-37.8333,140.7667,294.15,64,75,3.09
geraldton,-28.7667,114.6,300.15,47,100,4.63
luena,-11.7833,19.9167,288.27,91,33,1.24
mukhen,48.1,136.1,287.98,20,76,4.15
resistencia,-27.4606,-58.9839,286.48,100,0,1.03
kutum,14.2,24.6667,298.18,15,100,2.83
luba,3.4568,8.5547,296.15,88,20,1.86
prainha,-1.8,-53.48,295.9,92,98,0.51
mackay,-21.15,149.2,298.15,69,7,7.72
bawku,11.0616,-0.2417,301.07,57,97,3.62
kupang,-10.1667,123.5833,301.67,72,54,3.01
yuzhnyy,53.2542,83.6936,286.15,47,0,6.0
fairbanks,64.8378,-147.7164,285.15,24,1,0.59
bilma,18.6853,12.9164,300.84,10,5,3.19
plettenberg bay,-34.0527,23.3716,288.08,87,100,3.95
columbia,34.0007,-81.0348,294.26,78,1,2.57
hay river,60.8156,-115.7999,269.15,63,34,1.84
bartica,6.4,-58.6167,297.15,100,20,2.06
snyder,32.7179,-100.9176,290.15,72,75,4.63
havre-saint-pierre,50.2334,-63.5986,277.15,93,75,2.57
andenes,69.3143,16.1194,274.15,80,75,4.63
redlands,34.0556,-117.1825,294.15,23,1,1.54
carutapera,-1.195,-46.02,297.52,87,100,1.06
epernay,49.05,3.95,280.15,87,40,1.54
sarangani,5.4033,125.4636,301.67,74,96,4.23
arraial do cabo,-22.9661,-42.0278,294.77,79,98,2.66
nchelenge,-9.3451,28.734,293.06,88,51,1.83
coleraine,55.1333,-6.6667,276.15,93,0,0.51
rochegda,62.8,43.25,274.62,50,45,2.16
capao da canoa,-29.7456,-50.0097,289.43,88,12,2.97
omsukchan,62.5333,155.8,273.59,88,57,1.91
shimoda,34.6667,138.95,292.15,88,75,8.75
gunjur,13.2019,-16.7339,293.15,88,0,5.66
florianopolis,-27.6146,-48.5012,292.15,77,0,4.63
san andres,12.5847,-81.7006,300.15,78,20,3.6
turbat,26.0023,63.044,306.21,30,77,2.21
mackenzie,55.2999,-123.1698,279.15,93,90,3.09
lengshuijiang,27.6881,111.4294,299.88,45,67,2.16
angol,-37.8,-72.7167,285.57,80,65,1.33
kushiro,42.975,144.3747,289.15,48,75,3.6
calama,-22.4667,-68.9333,279.15,28,0,5.66
baglung,28.2719,83.5898,304.29,12,63,3.18
yenagoa,4.9247,6.2642,297.56,84,100,0.41
lodwar,3.1191,35.5973,302.12,49,94,3.2
lorengau,-2.0226,147.2712,302.68,67,99,2.96
bowen,-20.0167,148.2333,298.15,65,75,7.72
bitung,1.4451,125.1824,300.15,89,40,3.09
acapulco,16.8634,-99.8901,298.99,80,91,1.83
kruisfontein,-34.0033,24.7314,289.82,76,100,1.34
horconcitos,8.4682,-81.8007,292.13,89,98,1.56
saint-georges,12.0564,-61.7485,298.82,79,100,5.29
narsaq,60.9167,-46.05,275.15,87,90,3.09
piranhas,-16.4269,-51.8222,294.74,55,100,2.71
namibe,-15.1961,12.1522,296.12,72,38,4.07
wadi musa,30.3222,35.4793,294.21,22,0,3.06
vila franca do campo,37.7167,-25.4333,287.15,67,75,1.54
bani,18.2833,-70.3333,297.04,83,0,1.34
visnes,59.3556,5.2242,279.15,61,0,4.63
banda aceh,5.5577,95.3222,303.0,67,100,2.2
betanzos,43.2804,-8.2147,278.15,100,10,2.06
hammond,41.5834,-87.5,281.15,100,90,2.57
jambi,-1.6,103.6167,304.22,64,91,1.47
sistranda,63.7256,8.834,273.15,86,40,2.57
mudgee,-32.5943,149.5871,295.37,35,19,2.06
neryungri,56.6709,124.6491,272.3,94,100,2.98
vangaindrano,-23.35,47.6,296.2,89,18,1.1
valparaiso,-33.0393,-71.6273,285.37,82,2,1.46
araouane,18.9048,-3.5265,302.7,16,80,4.93
liberty,31.8335,-81.5004,292.15,88,1,1.58
broken hill,-31.95,141.4333,295.15,24,0,3.6
sutton coldfield,52.5667,-1.8167,276.15,70,0,1.54
port blair,11.6667,92.75,302.94,65,73,1.05
conceicao do araguaia,-8.2578,-49.2647,295.54,95,99,1.76
inhambane,-23.865,35.3833,293.15,94,20,1.98
lalmohan,22.3384,90.7419,305.17,58,23,4.75
romny,50.751,33.4747,279.96,64,5,3.28
kolondieba,11.0882,-6.8926,300.04,60,57,1.9
boffa,10.1667,-14.0333,296.53,78,98,0.71
hobyo,5.3505,48.5268,303.01,63,16,3.59
lovozero,68.005,35.0117,268.23,82,99,3.45
benguela,-12.5763,13.4055,299.1,77,69,1.05
impfondo,1.6381,18.0667,295.11,98,100,1.12
damghan,36.1683,54.348,295.87,38,96,0.88
carrollton,32.9537,-96.8903,297.59,83,90,2.11
kampong chhnang,12.1667,104.55,306.3,49,92,2.47
marabba,12.35,32.1833,304.43,42,96,4.99
mitu,1.1983,-70.1733,294.76,99,98,0.95
luanda,-8.8368,13.2343,299.15,89,75,1.03
formosa,-26.1775,-58.1781,284.02,82,0,2.21
zambezi,-13.5432,23.1047,289.31,92,48,2.13
guarapari,-20.6667,-40.4975,296.15,83,75,2.06
boromo,11.75,-2.9333,302.56,51,57,3.76
pekan,3.4836,103.3996,304.15,74,20,1.03
flin flon,54.7682,-101.865,268.35,78,59,2.06
nyurba,63.2842,118.3319,276.87,57,8,1.4
jaciara,-15.9653,-54.9683,294.17,67,100,1.45
nelson bay,-32.7167,152.15,294.82,64,40,4.63
villazon,-22.0866,-65.5942,277.02,79,7,3.0
hervey bay,-25.2986,152.8535,297.04,67,79,2.24
carolina,18.3808,-65.9574,297.15,83,20,1.54
terre-de-bas,15.8501,-61.6442,297.15,83,100,1.54
puerto escondido,15.85,-97.0667,301.15,74,1,3.16
dayton,39.7589,-84.1916,292.15,100,90,2.06
chipinge,-20.1883,32.6236,290.1,77,2,1.0
burns lake,54.2331,-125.7533,279.15,93,100,2.57
provideniya,64.3833,-173.3,274.15,60,0,4.0
riyadh,24.6877,46.7219,302.15,23,75,4.12
nemuro,43.3236,145.575,289.15,48,75,5.66
otjiwarongo,-20.4637,16.6477,289.3,42,25,3.03
kamina,-8.7386,24.9906,291.5,93,77,1.62
cervo,43.6702,-7.4101,280.37,87,18,0.77
hennenman,-27.9765,27.0242,285.37,33,7,3.94
mindelo,16.8901,-24.9804,294.15,78,75,4.63
ostrovnoy,68.0531,39.5131,267.44,80,85,3.53
tagusao,9.1924,117.8141,302.94,67,86,3.05
carmen,18.6333,-91.8333,302.66,57,0,8.65
daru,-9.0763,143.2092,298.47,85,99,0.64
las vegas,36.175,-115.1372,299.15,10,1,1.54
diamantino,-14.4086,-56.4461,292.97,82,97,1.59
pangai,-19.8,-174.35,298.15,94,75,1.03
wattegama,6.7989,81.4808,303.15,84,40,4.12
mandiana,10.6333,-8.6833,299.35,64,78,2.46
henties bay,-22.116,14.2845,288.15,94,69,1.34
hamilton,39.1834,-84.5333,292.59,100,90,2.06
kununurra,-15.7667,128.7333,308.15,52,75,1.54
lyndon,38.2567,-85.6016,293.15,75,100,0.45
cabinda,-5.55,12.2,298.84,89,100,1.08
sioux lookout,50.1001,-91.917,281.15,53,75,1.54
sakaraha,-22.9,44.5333,296.39,63,0,1.56
tiznit,29.5833,-9.5,285.03,90,55,0.68
ancud,-41.8697,-73.8203,288.15,100,90,4.63
aksarka,66.5606,67.7975,269.54,86,99,4.68
darasun,51.6667,114.0,277.15,33,82,6.0
severo-kurilsk,50.6789,156.125,276.31,83,93,2.31
canberra,-35.2835,149.1281,293.71,32,7,2.06
healdsburg,38.6105,-122.8692,288.71,58,1,2.57
huarmey,-10.0681,-78.1522,292.62,88,55,3.61
cairns,-16.9167,145.7667,300.37,83,90,3.09
belmopan,17.25,-88.7667,300.37,73,0,1.56
hailey,43.5196,-114.3153,284.15,46,1,4.12
caravelas,-17.7125,-39.2481,296.21,86,84,1.48
jibuti,11.5,42.5,301.15,74,75,2.66
brae,60.3964,-1.353,276.15,87,75,6.17
tha mai,12.6214,102.0048,305.15,70,75,1.03
raga,8.4596,25.678,298.68,65,93,2.82
bathsheba,13.2167,-59.5167,299.15,65,40,9.26
camana,-16.6228,-72.7111,292.03,88,18,3.6
preobrazheniye,42.9019,133.9064,284.42,40,51,1.83
kampot,10.6167,104.1833,303.15,84,40,3.6
hoquiam,46.9809,-123.8893,285.15,82,1,2.57
fort nelson,58.8053,-122.7002,275.15,51,75,1.54
teluknaga,-6.0989,106.6381,308.15,55,20,4.63
alta floresta,-9.8756,-56.0861,294.16,97,100,1.13
zhuhai,22.2769,113.5678,301.48,69,20,6.17
aykhal,66.0,111.5,273.25,87,6,6.45
tautira,-17.7333,-149.15,300.15,74,20,1.54
sao gabriel da cachoeira,-0.1303,-67.0892,295.36,99,100,0.7
luwuk,-0.9516,122.7875,303.56,62,49,1.83
great falls,47.5002,-111.3008,287.15,49,1,3.09
picayune,30.5255,-89.6795,297.15,88,90,2.06
taoudenni,22.6783,-3.9836,304.33,18,29,4.62
porto novo,6.4965,2.6036,298.15,94,20,1.03
pisco,-13.7,-76.2167,290.37,88,23,0.53
villa union,23.2,-106.2333,297.59,73,1,3.09
yumen,40.2833,97.2,297.28,7,8,11.73
belmonte,-15.8631,-38.8828,296.15,88,75,2.06
panguna,-6.3164,155.4848,296.66,80,94,1.6
aldan,58.6031,125.3894,270.86,94,100,4.79
miri,4.4148,114.0089,305.15,58,40,2.57
paamiut,61.994,-49.6678,275.53,79,100,1.05
ilhabela,-23.7781,-45.3581,293.29,84,92,1.96
pucallpa,-8.3791,-74.5539,293.4,87,83,1.07
challans,46.8436,-1.8749,278.15,93,77,2.73
tabou,4.423,-7.3528,298.96,87,97,2.09
vaasa,63.096,21.6158,274.26,93,98,2.06
disna,55.568,28.1971,278.26,71,82,3.45
tazovskiy,67.4667,78.7,272.66,92,100,2.08
kulhudhuffushi,6.6221,73.07,301.88,72,16,2.16
sibolga,1.7427,98.7792,302.11,74,100,1.96
mayor pablo lagerenza,-19.9309,-60.7718,290.31,51,94,2.36
jabinyanah,35.035,10.9081,291.15,77,40,2.06
te anau,-45.4167,167.7167,284.54,91,100,2.53
mandalgovi,45.7625,106.2708,276.29,85,90,6.96
tefe,-3.3542,-64.7114,295.55,99,100,0.2
gazipur,23.9981,90.423,305.15,58,12,4.12
nova olinda do norte,-3.8881,-59.0942,294.8,98,93,0.73
xihe,31.6864,113.4659,301.55,34,0,6.71
the valley,18.217,-63.0578,299.15,78,75,7.2
camocim,-2.9022,-40.8411,296.99,92,100,2.61
gerardmer,48.0735,6.8779,283.71,81,99,3.6
payo,-3.7508,103.6372,306.3,51,85,1.39
valdivia,-39.8142,-73.2459,282.15,100,90,0.36
lamlash,55.5336,-5.1296,275.37,87,20,2.06
katsuura,35.1333,140.3,292.04,88,75,4.12
bonfim,3.0833,-59.95,299.06,72,96,1.66
cabedelo,-6.9811,-34.8339,297.15,94,75,1.03
kindersley,51.4668,-109.1682,282.15,49,90,6.17
ambilobe,-13.2,49.05,298.87,79,4,1.7
ayabaca,-4.6398,-79.7149,282.29,97,100,0.6
mamakan,57.8161,114.0028,275.64,55,94,2.32
kenai,60.5544,-151.2583,285.15,35,90,2.06
itoman,26.1247,127.6694,293.15,88,75,9.26
merauke,-8.4667,140.3333,300.2,76,100,2.38
souris,49.6172,-100.2612,270.15,80,20,1.32
biskamzha,53.4497,89.5272,283.64,66,91,0.4
ambon,-3.6954,128.1814,301.93,67,88,2.75
port-cartier,50.0334,-66.8654,278.15,70,75,2.57
coihaique,-45.5752,-72.0662,280.82,96,100,1.52
umea,63.8284,20.2597,275.37,93,0,1.03
taltal,-25.4,-70.4833,289.77,83,0,0.58
boralday,43.3578,76.8594,298.15,29,0,3.0
birjand,32.8663,59.2211,299.15,13,0,6.17
uglovka,58.2392,33.5108,275.57,73,90,2.58
nouadhibou,20.931,-17.0347,292.15,88,14,5.14
paso de carrasco,-34.8603,-56.0522,285.37,87,0,2.06
progreso,21.2833,-89.6667,302.15,58,40,9.26
urubicha,-15.3833,-62.95,290.98,59,93,1.36
sao joao da barra,-21.6403,-41.0511,295.56,77,93,3.01
gamba,-2.65,10.0,297.38,92,100,1.49
tall kayf,37.0833,41.0667,297.15,31,0,3.09
paramirim,-13.4425,-42.2389,293.25,65,7,1.86
fengrun,39.8333,118.1167,294.64,13,56,4.58
rudnichnyy,59.617,52.4703,276.39,86,99,4.72
baiyin,36.5583,104.2081,292.15,19,0,5.0
niltepec,16.5667,-94.6167,299.69,83,83,2.62
ingham,42.6,-84.3833,284.15,87,90,2.57
abrau-dyurso,44.69,37.59,287.15,67,99,6.0
mayumba,-3.432,10.6554,298.18,88,100,2.02
tromso,69.6496,18.957,273.71,64,75,3.09
mungwi,-10.1732,31.3694,289.58,95,36,1.84
shu,43.5983,73.7614,300.49,29,0,1.84
bom jesus,-9.0744,-44.3586,296.84,69,79,0.74
springdale,36.1867,-94.1288,293.15,100,90,2.06
feira de santana,-12.2667,-38.9667,294.49,94,50,1.15
anadyr,64.75,177.4833,271.15,80,0,3.0
mnogovershinnyy,53.9353,139.9242,274.1,67,100,3.84
dayong,25.0209,118.2898,295.15,83,75,4.0
west wendover,40.7391,-114.0733,289.15,25,1,2.57
de-kastri,51.4667,140.7833,274.58,97,100,2.76
