City,Lat,Lng,Max Temp,Humidity,Cloudiness,Wind Speed,Country,Date
ancud,-41.8697,-73.8203,55.99,94,90,17.27,CL,1619813295
talcahuano,-36.7167,-73.1167,60.8,77,90,17.27,CL,1619813295
okhotsk,59.3833,143.3,30.69,80,100,4.65,RU,1619813295
ushuaia,-54.8,-68.3,41.0,81,75,4.61,AR,1619813261
saint-philippe,-21.3585,55.7679,75.2,83,0,5.75,RE,1619813296
atambua,-9.1061,124.8925,71.06,89,16,4.43,ID,1619813259
busselton,-33.65,115.3333,51.01,98,98,3.83,AU,1619813296
vanavara,60.34,102.2797,33.21,98,100,5.21,RU,1619813296
ternate,0.8,127.4,80.29,78,32,2.95,ID,1619813296
vaini,-21.2,-175.2,75.2,94,75,11.5,TO,1619813297
hermanus,-34.4187,19.2345,57.0,72,0,3.0,ZA,1619813297
wanning,18.8003,110.3967,75.56,88,84,3.18,CN,1619813297
georgetown,5.4112,100.3354,77.0,94,40,7.43,MY,1619813297
port alfred,-33.5906,26.891,62.53,78,53,15.19,ZA,1619813075
punta arenas,-53.15,-70.9167,42.8,93,90,6.91,CL,1619813298
cape town,-33.9258,18.4232,59.0,72,0,12.66,ZA,1619813211
qaanaaq,77.484,-69.3632,32.97,68,92,5.64,GL,1619813298
torbay,47.6666,-52.7314,45.0,70,75,13.8,CA,1619813091
netrakona,24.8833,90.7167,79.65,50,4,5.32,BD,1619813298
araouane,18.9048,-3.5265,87.98,30,98,7.7,ML,1619813299
butaritari,3.0707,172.7902,82.65,75,74,11.23,KI,1619813073
mahebourg,-20.4081,57.7,77.0,83,20,12.66,MU,1619813125
madingou,-4.1536,13.55,75.09,94,100,1.9,CG,1619813299
luebo,-5.35,21.4167,72.07,96,100,1.99,CD,1619813299
bilma,18.6853,12.9164,88.99,4,0,6.35,NE,1619813299
sitka,57.0531,-135.33,46.4,87,90,4.61,US,1619813062
kapaa,22.0752,-159.319,78.8,65,20,14.97,US,1619813113
victoria,22.2855,114.1577,77.0,87,100,2.24,HK,1619813286
lagoa,39.05,-27.9833,58.69,66,100,6.24,PT,1619813300
russell,32.3502,-85.1999,78.8,36,20,10.36,US,1619813300
cherskiy,68.75,161.3,7.9,96,98,1.77,RU,1619813300
hofn,64.2539,-15.2082,35.67,92,100,15.08,IS,1619813300
albany,42.6001,-73.9662,53.01,67,100,8.01,US,1619813004
kalamare,-22.9337,26.5703,63.99,70,3,0.58,BW,1619813301
charkhi dadri,28.6,76.2667,87.73,23,88,6.44,IN,1619813301
esperance,-33.8667,121.9,48.2,93,40,5.75,AU,1619813112
sao joao da barra,-21.6403,-41.0511,75.2,64,0,8.05,BR,1619813191
faanui,-16.4833,-151.75,79.86,75,100,2.48,PF,1619813157
horsham,51.064,-0.3272,46.99,70,0,4.61,GB,1619813301
lebu,-37.6167,-73.65,57.38,84,100,20.65,CL,1619813302
biltine,14.5333,20.9167,89.2,11,55,5.82,TD,1619813302
fortuna,40.5982,-124.1573,64.0,82,1,17.27,US,1619813056
vila franca do campo,37.7167,-25.4333,59.0,63,40,6.91,PT,1619813109
oil city,41.4339,-79.7064,46.4,61,75,14.97,US,1619813302
kodiak,57.79,-152.4072,48.2,43,1,13.8,US,1619813302
grindavik,63.8424,-22.4338,39.2,70,40,20.71,IS,1619813303
yatou,37.15,122.3833,44.67,88,100,8.75,CN,1619813256
umm lajj,25.0213,37.2685,85.86,38,0,6.51,SA,1619813303
castro,-24.7911,-50.0119,63.93,61,39,7.9,BR,1619813303
chiavari,44.3201,9.322,59.0,89,97,1.39,IT,1619813304
bredasdorp,-34.5322,20.0403,51.8,76,0,3.44,ZA,1619813299
port elizabeth,-33.918,25.5701,59.0,67,40,16.11,ZA,1619813104
ibipeba,-11.6408,-42.0111,77.32,56,32,12.3,BR,1619813304
rikitea,-23.1203,-134.9692,78.87,77,77,20.09,PF,1619813304
aklavik,68.2191,-135.0107,28.4,80,100,8.05,CA,1619813304
geraldton,-28.7667,114.6,57.2,54,95,12.66,AU,1619813048
katsuura,35.1333,140.3,60.8,82,20,11.5,JP,1619813305
clyde river,70.4692,-68.5914,24.8,100,75,3.44,CA,1619813177
meulaboh,4.1363,96.1285,77.0,88,53,3.89,ID,1619813208
buchanan,5.8808,-10.0467,78.8,94,75,7.11,LR,1619813119
bluff,-46.6,168.3333,39.99,93,98,3.0,NZ,1619813259
taltal,-25.4,-70.4833,66.6,72,99,6.89,CL,1619813305
costinesti,43.95,28.6333,60.01,100,95,3.44,RO,1619813305
palatka,29.6486,-81.6376,88.0,54,57,6.38,US,1619813024
iwanai,42.9744,140.5089,42.13,92,100,8.52,JP,1619813306
iquique,-20.2208,-70.1431,69.8,60,0,21.85,CL,1619813306
barrow,71.2906,-156.7887,21.2,79,90,4.61,US,1619813141
tasiilaq,65.6145,-37.6368,32.0,80,50,6.91,GL,1619813149
lavrentiya,65.5833,-171.0,22.19,79,50,3.67,RU,1619813306
east london,-33.0153,27.9116,61.99,73,77,12.75,ZA,1619813306
langarud,37.197,50.1535,62.6,94,75,2.3,IR,1619813307
kaitangata,-46.2817,169.8464,44.01,84,57,3.0,NZ,1619813144
bloomingdale,27.8936,-82.2404,88.0,48,75,12.66,US,1619813307
burnie,-41.0667,145.9167,52.0,92,85,1.99,AU,1619813307
vilhena,-12.7406,-60.1458,84.2,54,40,9.22,BR,1619813307
bambari,5.768,20.6757,79.38,62,84,4.27,CF,1619813308
bairiki,1.3292,172.9752,82.4,78,75,5.75,KI,1619813308
ribeira grande,38.5167,-28.7,62.6,67,75,6.91,PT,1619813308
green river,41.5286,-109.4662,71.6,14,1,13.8,US,1619813136
san rafael,-34.6177,-68.3301,72.93,36,100,13.67,AR,1619813309
bethel,41.3712,-73.414,64.4,34,40,18.41,US,1619813309
avarua,-21.2078,-159.775,78.8,83,90,9.22,CK,1619813309
ust-nera,64.5667,143.2,30.72,96,97,2.19,RU,1619813309
campos novos,-27.4017,-51.225,65.34,52,5,4.63,BR,1619813310
del rio,29.3627,-100.8968,78.8,50,90,11.5,US,1619813310
dakar,14.6937,-17.4441,69.8,88,0,16.11,SN,1619813034
hami,42.8,93.45,72.7,13,32,4.38,CN,1619813310
luderitz,-26.6481,15.1594,65.01,41,0,18.03,NA,1619813310
longyearbyen,78.2186,15.6401,17.6,67,75,16.11,SJ,1619813145
banda aceh,5.5577,95.3222,78.94,82,80,4.72,ID,1619813311
kashiwazaki,37.3667,138.55,46.0,94,35,4.47,JP,1619813149
jamestown,42.097,-79.2353,46.0,49,1,24.16,US,1619813159
togur,58.3631,82.8265,38.53,84,3,9.35,RU,1619813311
souillac,-20.5167,57.5167,77.0,83,20,12.66,MU,1619813311
chunskiy,56.0815,99.6342,29.3,98,57,2.91,RU,1619813312
hilo,19.7297,-155.09,82.4,57,75,5.75,US,1619813312
beringovskiy,63.05,179.3167,25.07,82,100,9.22,RU,1619813312
trinidad,-14.8333,-64.9,84.2,39,0,6.91,BO,1619813041
andijon,40.7821,72.3442,64.99,50,99,18.01,UZ,1619813312
arraial do cabo,-22.9661,-42.0278,77.0,64,20,5.75,BR,1619813063
pecos,31.4229,-103.4932,66.2,48,75,9.22,US,1619813313
rio de jesus,7.9844,-81.1631,90.09,47,75,2.35,PA,1619813313
cayenne,4.9333,-52.3333,82.4,78,75,10.36,GF,1619813313
new norfolk,-42.7826,147.0587,48.0,86,43,3.04,AU,1619813131
provideniya,64.3833,-173.3,28.71,59,99,0.81,RU,1619813181
san patricio,28.017,-97.5169,78.8,89,90,8.01,US,1619813261
malanje,-9.5402,16.341,66.42,93,85,2.68,AO,1619813314
slave lake,55.2834,-114.769,50.0,53,40,13.8,CA,1619813314
lincoln,40.8,-96.667,84.2,20,90,6.91,US,1619813079
pathein,16.7833,94.7333,79.02,80,20,4.03,MM,1619813314
vestmannaeyjar,63.4427,-20.2734,41.81,79,96,5.88,IS,1619813314
pastavy,55.1168,26.8326,40.48,81,84,10.47,BY,1619813315
armidale,-30.5167,151.65,46.99,85,27,4.97,AU,1619813315
mataura,-46.1927,168.8643,39.99,93,62,3.0,NZ,1619813315
bonthe,7.5264,-12.505,80.94,76,55,10.56,SL,1619813315
namibe,-15.1961,12.1522,75.25,77,28,5.46,AO,1619813316
hobart,-42.8794,147.3294,48.2,81,75,10.36,AU,1619813316
carballo,43.213,-8.691,52.0,76,40,8.05,ES,1619813316
praia,14.9215,-23.5087,71.6,73,40,17.27,CV,1619813316
maniitsoq,65.4167,-52.9,35.53,73,10,3.22,GL,1619813317
lompoc,34.6391,-120.4579,70.0,78,42,8.99,US,1619813025
chokurdakh,70.6333,147.9167,3.88,96,40,4.23,RU,1619813317
pevek,69.7008,170.3133,15.44,92,100,11.41,RU,1619813317
casablanca,33.5928,-7.6192,62.6,63,75,4.61,MA,1619813087
makakilo city,21.3469,-158.0858,82.4,54,75,9.22,US,1619813317
yellowknife,62.456,-114.3525,34.0,93,90,11.5,CA,1619813209
dingle,10.9995,122.6711,75.72,73,100,5.06,PH,1619813318
upernavik,72.7868,-56.1549,34.09,78,100,5.95,GL,1619813318
chuy,-33.6971,-53.4616,66.97,60,12,5.03,UY,1619813318
esteli,13.0919,-86.3538,82.4,51,40,1.95,NI,1619813318
khatanga,71.9667,102.5,29.91,94,99,8.43,RU,1619813319
agboville,5.928,-4.2132,79.66,80,23,5.39,CI,1619813319
bonoua,5.2741,-3.595,84.2,84,20,10.36,CI,1619813319
cidreira,-30.1811,-50.2056,69.44,70,0,14.58,BR,1619813319
grand forks,47.9417,-97.4337,50.0,27,90,16.11,US,1619813320
quatre cocos,-20.2078,57.7625,78.01,83,20,12.66,MU,1619813132
jacareacanga,-6.2222,-57.7528,82.4,78,0,4.61,BR,1619813320
pangai,-19.8,-174.35,77.0,83,40,13.8,TO,1619813320
magadan,59.5667,150.8,30.09,89,100,2.93,RU,1619813321
nelson bay,-32.7167,152.15,63.0,100,6,5.79,AU,1619813321
kamina,-8.7386,24.9906,66.27,93,100,3.2,CD,1619813321
airai,-8.9266,125.4092,56.79,88,76,3.06,TL,1619813321
tuktoyaktuk,69.4541,-133.0374,17.6,79,20,9.22,CA,1619813322
vershino-shakhtaminskiy,51.3012,117.8868,19.42,97,44,3.53,RU,1619813322
boa vista,2.8197,-60.6733,86.0,62,75,4.61,BR,1619813196
constitucion,-35.3333,-72.4167,58.24,83,100,10.92,CL,1619813322
gao,16.6362,1.637,93.99,9,0,7.94,ML,1619813322
mar del plata,-38.0023,-57.5575,71.01,60,0,12.66,AR,1619813323
sao filipe,14.8961,-24.4956,72.75,76,47,10.22,CV,1619813234
comodoro rivadavia,-45.8667,-67.5,68.0,45,0,12.66,AR,1619813208
manica,49.0,-1.1667,44.6,76,0,3.44,FR,1619813323
doha,25.2867,51.5333,82.99,65,0,5.75,QA,1619813239
qovlar,40.948,45.735,64.4,77,75,13.8,AZ,1619813323
bengkulu,-3.8004,102.2655,74.98,91,92,3.8,ID,1619813324
olafsvik,64.8945,-23.7142,35.56,62,66,28.12,IS,1619813324
verkhnyaya inta,65.9811,60.3094,28.33,69,29,10.83,RU,1619813324
hay river,60.8156,-115.7999,33.8,93,100,8.05,CA,1619813324
sesheke,-17.4759,24.2968,69.71,71,78,3.04,ZM,1619813325
kamuli,0.9472,33.1197,64.58,95,100,3.11,UG,1619813325
lewistown,40.5992,-77.5714,53.01,61,75,12.66,US,1619813325
thompson,55.7435,-97.8558,42.8,33,90,6.91,CA,1619813063
iskilip,40.7353,34.4739,59.85,59,41,3.78,TR,1619813114
ostrovnoy,68.0531,39.5131,17.37,89,58,7.43,RU,1619813325
alice springs,-23.7,133.8833,50.0,53,49,4.61,AU,1619813117
samarai,-10.6167,150.6667,79.29,79,97,8.52,PG,1619813326
pangody,65.85,74.4859,28.44,92,100,13.33,RU,1619813326
los llanos de aridane,28.6585,-17.9182,66.2,63,75,17.27,ES,1619813174
rawson,-43.3002,-65.1023,71.1,28,100,3.74,AR,1619813266
pontianak,-0.0333,109.3333,73.4,100,98,3.44,ID,1619813055
saint-joseph,-21.3667,55.6167,75.2,83,0,5.75,RE,1619813326
mzimba,-11.9,33.6,63.16,89,58,8.32,MW,1619813327
ushumun,52.7833,126.5333,32.38,79,100,5.03,RU,1619813327
margate,51.3813,1.3862,46.0,68,35,4.5,GB,1619813327
nikolskoye,59.7035,30.7861,41.0,45,0,4.47,RU,1619813327
itarema,-2.9248,-39.9167,80.37,80,68,11.72,BR,1619813328
te anau,-45.4167,167.7167,38.26,94,100,0.89,NZ,1619813168
teberda,43.4456,41.7448,43.18,89,30,7.29,RU,1619813328
bubaque,11.2833,-15.8333,78.71,71,15,20.33,GW,1619813328
ampanihy,-24.7,44.75,70.88,71,0,6.91,MG,1619813329
norman wells,65.282,-126.8329,41.0,42,20,4.61,CA,1619813329
flinders,-34.5833,150.8552,55.99,89,1,1.01,AU,1619813329
ponta do sol,32.6667,-17.1,59.0,54,89,7.0,PT,1619813217
guerrero negro,27.9769,-114.0611,85.59,26,0,12.15,MX,1619813329
egvekinot,66.3167,-179.1667,19.78,91,99,0.43,RU,1619813215
yenagoa,4.9247,6.2642,78.76,88,96,4.83,NG,1619813330
parkes,-33.1333,148.1833,51.71,82,0,5.17,AU,1619813330
praia da vitoria,38.7333,-27.0667,61.0,63,20,2.57,PT,1619813330
carnarvon,-24.8667,113.6333,64.4,59,78,10.36,AU,1619813089
nuuk,64.1835,-51.7216,33.8,100,20,2.3,GL,1619813331
kahului,20.8947,-156.47,78.8,83,40,17.27,US,1619813281
aksha,50.2814,113.2867,29.82,83,31,3.02,RU,1619813331
yichang,30.7144,111.2847,69.62,70,0,3.91,CN,1619813331
las palmas,28.4204,-14.0131,68.0,56,40,18.41,ES,1619813331
matara,5.9485,80.5353,78.06,87,99,2.86,LK,1619813332
vytegra,61.0064,36.4481,36.01,85,100,3.42,RU,1619813332
bac lieu,9.285,105.7244,82.89,75,13,9.71,VN,1619813332
matay,28.419,30.7792,89.82,12,0,17.58,EG,1619813332
porto nacional,-10.7081,-48.4172,86.0,70,40,5.75,BR,1619813114
lakselv,70.0513,24.9718,28.4,74,40,25.32,NO,1619813333
twante,16.7167,95.9333,78.8,83,41,3.44,MM,1619813333
saldanha,-33.0117,17.9442,57.2,67,0,10.36,ZA,1619813221
morros,-9.4467,-46.3003,83.77,57,50,3.53,BR,1619813333
puerto ayora,-0.7393,-90.3518,82.4,69,40,14.97,EC,1619813334
tijara,27.9333,76.85,93.99,25,59,6.62,IN,1619813334
zhigansk,66.7697,123.3711,31.3,85,100,4.03,RU,1619813334
marrakesh,31.6315,-8.0083,59.0,63,75,2.3,MA,1619813334
north bend,43.4065,-124.2243,63.0,72,1,10.36,US,1619813335
weiswampach,50.1372,6.075,48.99,62,100,7.0,LU,1619813335
atuona,-9.8,-139.0333,78.87,70,2,4.05,PF,1619813265
vazhiny,60.9644,34.0222,33.73,72,4,5.21,RU,1619813335
broken hill,-31.95,141.4333,55.4,54,100,6.91,AU,1619813336
saint-augustin,51.226,-58.6502,43.66,72,94,10.83,CA,1619813336
gravelbourg,49.8834,-106.5512,77.0,14,95,23.02,CA,1619813336
kaka,37.3482,59.6143,72.9,51,100,2.71,TM,1619813336
bambous virieux,-20.3428,57.7575,78.01,83,20,12.66,MU,1619813337
algiers,36.7525,3.042,62.6,72,0,3.44,DZ,1619813283
haines junction,60.7522,-137.5108,46.4,42,100,11.5,CA,1619813337
port moresby,-9.4431,147.1797,73.74,86,67,4.94,PG,1619813337
khulo,41.644,42.3129,55.4,94,75,3.44,GE,1619813337
kudahuvadhoo,2.6708,72.8944,83.14,70,4,2.8,MV,1619813338
ilulissat,69.2167,-51.1,39.2,60,20,4.61,GL,1619813111
yilan,24.757,121.753,68.0,99,100,4.59,TW,1619813338
port hedland,-20.3167,118.5667,71.6,83,2,5.75,AU,1619813338
port shepstone,-30.7414,30.455,63.27,76,100,17.09,ZA,1619813338
derzhavinsk,51.1,66.3167,48.4,54,45,8.43,KZ,1619813339
kollam,8.8833,76.6,82.4,83,40,2.3,IN,1619813339
iqaluit,63.7506,-68.5145,35.6,75,75,17.27,CA,1619813339
cabo san lucas,22.8909,-109.9124,88.0,36,1,9.22,MX,1619813339
tautira,-17.7333,-149.15,82.4,74,40,10.36,PF,1619813340
ewa beach,21.3156,-158.0072,82.4,54,75,9.22,US,1619813308
parabel,58.6978,81.4825,37.98,85,7,9.62,RU,1619813340
ixtapa,20.7,-105.2,80.6,74,40,12.66,MX,1619813155
linxia,35.6003,103.2064,53.6,34,0,4.18,CN,1619813340
la asuncion,11.0333,-63.8628,79.65,72,84,7.45,VE,1619813341
marzuq,14.4,46.4667,76.23,55,100,2.42,YE,1619813172
alta floresta,-9.8756,-56.0861,86.0,66,40,4.61,BR,1619813341
marsh harbour,26.5412,-77.0636,79.63,65,6,9.64,BS,1619813128
ponta delgada,37.7333,-25.6667,59.0,63,40,6.91,PT,1619813341
daru,-9.0763,143.2092,77.56,84,98,9.08,PG,1619813240
westport,41.1415,-73.3579,64.99,39,90,18.41,US,1619813341
kanturk,52.1667,-8.9,46.4,76,75,10.36,IE,1619813342
deputatskiy,69.3,139.9,18.54,97,96,1.43,RU,1619813108
nayoro,44.3506,142.4578,36.1,98,100,6.91,JP,1619813342
aquiraz,-3.9014,-38.3911,84.2,74,75,9.22,BR,1619813342
binghamton,42.0987,-75.918,55.0,50,75,21.85,US,1619813178
severo-kurilsk,50.6789,156.125,35.01,94,100,20.69,RU,1619813343
khilok,51.3674,110.4676,28.94,73,100,3.76,RU,1619813343
fukue,32.6881,128.8419,64.9,84,92,27.13,JP,1619813343
ossora,59.2353,163.0719,30.36,84,56,3.58,RU,1619813343
novyy urengoy,66.0833,76.6333,30.52,89,100,15.08,RU,1619813344
san quintin,30.4833,-115.95,75.56,45,0,13.8,MX,1619813344
saskylakh,71.9167,114.0833,30.97,87,100,9.22,RU,1619813123
rio grande,-32.035,-52.0986,73.4,64,0,11.5,BR,1619813344
laguna,38.421,-121.4238,84.0,28,75,8.05,US,1619813344
lorengau,-2.0226,147.2712,79.99,77,100,3.0,PG,1619813192
kaliua,-5.0606,31.7936,68.23,84,97,3.13,TZ,1619813345
eichenzell,50.4934,9.6961,46.99,80,100,1.61,DE,1619813345
catumbela,-12.4314,13.5472,79.0,83,92,2.39,AO,1619813345
yachimata,35.65,140.3167,57.99,100,20,1.14,JP,1619813345
hasaki,35.7333,140.8333,50.0,100,20,1.14,JP,1619813118
conway,35.0887,-92.4421,79.0,29,1,5.55,US,1619813346
kodinar,20.7903,70.7031,81.79,70,100,9.1,IN,1619813303
baruun-urt,46.6806,113.2792,31.01,71,16,11.21,MN,1619813346
jalu,29.0331,21.5482,89.46,10,0,10.47,LY,1619813346
kargasok,59.0556,80.8572,37.13,89,9,9.57,RU,1619813347
misratah,32.3754,15.0925,76.86,49,94,12.33,LY,1619813347
dalvik,65.9702,-18.5286,33.8,93,90,12.66,IS,1619813347
viedma,-40.8135,-62.9967,77.86,29,98,15.05,AR,1619813343
lang son,21.8333,106.7333,69.44,89,17,1.5,VN,1619813347
netarhat,23.4833,84.2667,71.98,21,0,5.41,IN,1619813348
adre,13.4667,22.2,86.7,14,16,9.75,TD,1619813348
yuzhnouralsk,54.4418,61.2536,40.17,60,11,6.06,RU,1619813348
avera,33.194,-82.5271,80.6,34,1,16.11,US,1619813348
korem,12.5058,39.5228,57.31,79,96,1.7,ET,1619813349
fomboni,-12.28,43.7425,82.87,74,17,10.8,KM,1619813349
kirkuk,35.4681,44.3922,78.33,26,0,6.02,IQ,1619813349
rio gallegos,-51.6226,-69.2181,50.0,81,20,3.44,AR,1619813251
acajutla,13.5928,-89.8275,89.6,43,40,2.3,SV,1619813160
tessalit,20.1986,1.0114,89.76,21,97,28.07,ML,1619813349
moranbah,-22.0016,148.0466,60.3,96,23,11.23,AU,1619813350
bani,18.2833,-70.3333,86.0,66,75,9.22,DO,1619813350
aginskoye,51.1,114.53,32.18,81,12,6.15,RU,1619813350
omboue,-1.5746,9.2618,78.85,86,100,4.59,GA,1619813350
dikson,73.5069,80.5464,4.15,95,75,10.0,RU,1619813351
necochea,-38.5473,-58.7368,72.0,47,0,8.99,AR,1619813351
waddan,29.1614,16.139,92.05,7,0,15.75,LY,1619813351
abu samrah,35.3029,37.1841,70.66,34,0,6.53,SY,1619813351
inhambane,-23.865,35.3833,73.89,76,86,4.56,MZ,1619813352
kattivakkam,13.2167,80.3167,86.0,74,40,6.91,IN,1619813352
gazanjyk,39.2446,55.5154,73.04,50,42,7.54,TM,1619813352
birao,10.2849,22.7882,89.8,27,43,4.79,CF,1619813171
tiksi,71.6872,128.8694,30.31,83,100,3.44,RU,1619813072
morondava,-20.2833,44.2833,77.9,85,0,8.41,MG,1619813352
adrar,20.5022,-10.0711,82.44,33,14,9.1,MR,1619813353
baykit,61.67,96.37,29.98,99,86,2.53,RU,1619813353
kieta,-6.2167,155.6333,78.3,82,32,1.25,PG,1619813353
lons,43.3167,-0.4,51.8,82,90,3.44,FR,1619813354
barguzin,53.6167,109.6167,33.91,66,100,2.68,RU,1619813354
berberati,4.2612,15.7922,70.12,83,92,0.69,CF,1619813354
manbij,36.5281,37.9549,68.0,40,0,10.36,SY,1619813225
quchan,37.106,58.5095,59.72,73,100,7.29,IR,1619813354
at-bashi,41.1702,75.8106,52.41,59,84,3.4,KG,1619813171
verkhoyansk,67.5447,133.385,21.58,96,93,1.12,RU,1619813355
san cristobal,7.7669,-72.225,73.4,100,75,9.22,VE,1619813355
leningradskiy,69.3833,178.4167,16.92,88,100,21.83,RU,1619813232
half moon bay,37.4636,-122.4286,69.01,82,75,13.8,US,1619813355
nome,64.5011,-165.4064,23.0,63,1,3.44,US,1619813089
nadym,65.5333,72.5167,30.88,85,100,14.25,RU,1619813356
padang,-0.9492,100.3543,78.66,84,100,3.47,ID,1619813356
tommot,58.9564,126.2925,32.04,98,100,0.51,RU,1619813356
manturovo,58.3353,44.7619,47.12,91,100,14.27,RU,1619813356
hakkari,37.5833,44.1667,52.07,71,10,1.61,TR,1619813357
sibolga,1.7427,98.7792,76.5,86,100,2.75,ID,1619813357
port-de-bouc,43.4,4.9833,60.8,88,90,3.44,FR,1619813357
cabedelo,-6.9811,-34.8339,80.6,78,20,10.36,BR,1619813357
gizo,-8.103,156.8419,81.37,76,82,6.71,SB,1619813358
chumphon,10.3333,98.8333,71.85,94,99,0.54,TH,1619813151
bilibino,68.0546,166.4372,7.29,89,31,0.65,RU,1619813358
san vicente pacaya,14.4161,-90.6392,78.8,53,40,13.8,GT,1619813171
axim,4.8699,-2.2405,81.9,78,76,6.73,GH,1619813358
tazovskiy,67.4667,78.7,30.42,95,100,11.25,RU,1619813359
iguape,-24.7081,-47.5553,71.65,62,63,8.86,BR,1619813359
smithers,54.7804,-127.1743,50.0,71,90,3.44,CA,1619813359
isangel,-19.55,169.2667,77.13,79,100,16.2,VU,1619813359
shieli,44.1667,66.75,52.93,56,97,7.87,KZ,1619813360
poum,-20.2333,164.0167,74.59,70,57,10.25,NC,1619813360
yantal,56.8471,105.2542,34.81,98,100,4.88,RU,1619813360
salta,-24.7859,-65.4117,68.0,52,20,5.75,AR,1619813269
nouadhibou,20.931,-17.0347,71.6,78,0,16.11,MR,1619813360
umm kaddadah,13.6017,26.6876,83.3,22,6,5.86,SD,1619813361
mustasaari,63.1142,21.6822,36.0,75,0,2.3,FI,1619813361
carutapera,-1.195,-46.02,76.46,92,100,2.42,BR,1619813361
port hardy,50.6996,-127.4199,51.8,82,75,12.66,CA,1619813148
high level,58.5169,-117.136,55.4,50,75,16.11,CA,1619813334
kruisfontein,-34.0033,24.7314,55.99,73,0,1.01,ZA,1619813122
vanimo,-2.6741,141.3028,77.67,88,100,5.12,PG,1619813231
nangong,37.3581,115.3744,47.35,61,89,7.38,CN,1619813353
salalah,17.0151,54.0924,82.4,83,40,3.44,OM,1619813362
grenfell,-33.9,148.1667,50.34,84,0,5.12,AU,1619813362
smithfield,41.922,-71.5495,64.0,51,20,21.85,US,1619813362
portland,45.5234,-122.6762,66.2,52,75,5.75,US,1619813336
yako,12.9667,-2.2667,99.59,17,97,8.88,BF,1619813362
micheweni,-4.9667,39.8333,78.58,85,65,7.85,TZ,1619813363
turbat,26.0023,63.044,86.34,40,100,9.19,PK,1619813363
hithadhoo,-0.6,73.0833,84.0,72,85,7.61,MV,1619813363
mogadishu,2.0371,45.3438,82.53,72,100,11.65,SO,1619813083
turki,51.987,43.2731,49.89,84,100,15.17,RU,1619813363
dafeng,23.4517,108.5881,71.11,80,85,1.99,CN,1619813364
hudiksvall,61.729,17.1036,34.0,52,19,7.07,SE,1619813364
acapulco,16.8634,-99.8901,86.0,66,20,9.22,MX,1619813364
ratnagiri,16.9833,73.3,81.64,76,15,6.69,IN,1619813364
yinchuan,38.4681,106.2731,59.94,22,2,5.82,CN,1619813184
sorong,-0.8833,131.25,78.35,86,100,5.37,ID,1619813365
port blair,11.6667,92.75,81.54,74,100,1.88,IN,1619813365
santiago del estero,-27.7951,-64.2615,76.14,38,4,10.16,AR,1619813365
camacha,33.0833,-16.3333,62.6,63,40,12.66,PT,1619813365
ukiah,39.1502,-123.2078,80.6,28,1,3.44,US,1619813366
dosso,13.049,3.1937,94.33,16,7,5.66,NE,1619813366
coquimbo,-29.9533,-71.3436,62.6,72,0,12.66,CL,1619813143
pangkalanbuun,-2.6833,111.6167,73.6,97,100,0.6,ID,1619813366
santa isabel do rio negro,-0.4139,-65.0192,85.3,65,50,1.66,BR,1619813366
klaksvik,62.2266,-6.589,37.4,81,40,5.75,FO,1619813172
namatanai,-3.6667,152.4333,78.28,81,36,3.53,PG,1619813367
tura,25.5198,90.2201,75.85,42,24,4.52,IN,1619813225
taihe,30.8712,105.3845,71.4,64,0,0.51,CN,1619813367
yulara,-25.2406,130.9889,53.6,40,93,6.91,AU,1619813367
saint-anselme,46.6292,-70.9734,48.0,88,100,3.0,CA,1619813367
warrington,53.3925,-2.5802,46.0,81,75,5.75,GB,1619813200
gwadar,25.1216,62.3254,84.9,58,100,15.5,PK,1619813368
seymchan,62.8833,152.4333,28.72,95,100,1.21,RU,1619813368
monte alegre de sergipe,-10.0272,-37.5622,78.26,61,19,13.11,BR,1619813368
sahbuz,39.4072,45.5739,66.2,59,75,16.11,AZ,1619813369
beloha,-25.1667,45.05,72.32,75,14,4.88,MG,1619813119
arlit,18.7369,7.3853,92.26,5,0,9.84,NE,1619813147
tarko-sale,64.9225,77.785,32.0,93,100,1.99,RU,1619813369
harper,4.375,-7.7169,81.25,76,100,5.86,LR,1619813369
nanortalik,60.1432,-45.2371,42.01,64,10,5.35,GL,1619813114
tambopata,-12.7333,-69.1833,84.2,45,0,4.61,PE,1619813370
marsa matruh,31.3525,27.2453,69.8,64,0,4.61,EG,1619813370
statesboro,32.4488,-81.7832,87.8,28,1,12.66,US,1619813370
westerland,54.9079,8.3033,46.99,81,75,3.44,DE,1619813370
oistins,13.0667,-59.5333,82.4,57,75,18.41,BB,1619813335
lata,40.1629,-8.3327,53.01,66,4,4.0,PT,1619813371
kalmunai,7.4167,81.8167,79.84,84,91,6.62,LK,1619813371
pangnirtung,66.1451,-65.7125,33.8,86,40,9.22,CA,1619813371
atherton,53.5237,-2.4935,46.0,74,97,6.89,GB,1619813371
paris,48.8534,2.3488,52.0,50,0,9.22,FR,1619813285
svetlyy,54.675,20.1347,41.0,75,40,8.95,RU,1619813372
pisco,-13.7,-76.2167,73.4,64,0,13.8,PE,1619813126
disna,55.568,28.1971,39.47,85,98,10.45,BY,1619813372
sirur,18.8333,74.3833,86.05,32,100,7.67,IN,1619813372
vila velha,-20.3297,-40.2925,78.01,69,20,12.66,BR,1619813372
narsaq,60.9167,-46.05,55.4,26,7,32.21,GL,1619813140
ballina,-28.8667,153.5667,62.6,100,90,4.61,AU,1619813373
puerto madero,14.7208,-92.4215,87.8,66,40,11.5,MX,1619813373
karratha,-20.7377,116.8463,79.34,46,7,3.36,AU,1619813373
van,38.4924,43.3831,50.0,87,75,6.91,TR,1619813077
ambilobe,-13.2,49.05,74.32,94,21,2.28,MG,1619813373
ulladulla,-35.35,150.4667,54.0,100,3,3.44,AU,1619813374
cururupu,-1.8283,-44.8683,80.47,81,80,3.13,BR,1619813374
saint george,37.1041,-113.5841,88.0,13,1,6.91,US,1619813083
bagn,60.8225,9.5521,30.0,63,69,1.01,NO,1619813374
krasnouralsk,58.3638,60.0407,32.29,63,33,4.29,RU,1619813374
arrecife,28.963,-13.5477,66.2,59,20,17.27,ES,1619813375
cheshire,41.499,-72.9007,66.0,34,75,18.41,US,1619813375
grand gaube,-20.0064,57.6608,78.01,81,6,7.0,MU,1619813375
graaff-reinet,-32.2522,24.5308,50.0,76,5,4.45,ZA,1619813376
pitimbu,-7.4706,-34.8086,80.6,78,20,10.36,BR,1619813376
quilali,13.567,-86.026,82.4,51,40,5.19,NI,1619813376
rio brilhante,-21.8019,-54.5464,84.74,20,0,5.86,BR,1619813376
bulgan,48.8125,103.5347,40.14,64,94,3.22,MN,1619813377
verkhniye kigi,55.4083,58.6044,37.56,70,18,5.55,RU,1619813377
srednekolymsk,67.45,153.6833,14.85,89,15,7.92,RU,1619813206
pochutla,15.7432,-96.4661,90.0,62,90,17.27,MX,1619813377
tezu,27.9167,96.1667,73.72,58,99,4.68,IN,1619813378
boma,7.0805,-2.1697,80.56,66,100,1.88,GH,1619813378
buluang,13.3068,123.3425,73.51,88,10,2.82,PH,1619813378
valparaiso,-33.0393,-71.6273,66.2,67,0,5.75,CL,1619813376
preeceville,51.95,-102.6677,57.25,47,98,16.02,CA,1619813378
kenitra,34.261,-6.5802,57.2,88,40,8.66,MA,1619813379
kamaishi,39.2667,141.8833,45.37,81,3,6.89,JP,1619813379
broome,42.2506,-75.833,54.0,50,75,21.85,US,1619813379
pasni,25.2631,63.471,84.9,54,100,9.24,PK,1619813379
poronaysk,49.2167,143.1167,34.57,89,100,22.73,RU,1619813379
melbourne,28.0836,-80.6081,91.4,40,40,10.36,US,1619813152
taoudenni,22.6783,-3.9836,77.18,56,91,34.43,ML,1619813380
pafos,34.7667,32.4167,68.0,68,0,5.75,CY,1619813380
ambon,-3.6954,128.1814,81.46,76,98,3.27,ID,1619813380
kyra,49.5776,111.9753,28.33,76,21,5.77,RU,1619813380
kangaatsiaq,68.3065,-53.4641,32.77,80,51,8.93,GL,1619813172
lipin bor,60.2622,37.9763,33.93,98,100,7.7,RU,1619813381
richards bay,-28.783,32.0377,65.21,87,99,15.82,ZA,1619813381
sorland,67.667,12.6934,32.0,80,40,14.97,NO,1619813381
rodrigues alves,-7.738,-72.6509,84.2,61,75,5.75,BR,1619813382
havoysund,70.9963,24.6622,28.4,93,90,31.07,NO,1619813357
vardo,70.3705,31.1107,26.6,68,75,12.66,NO,1619813382
alyangula,-13.8483,136.4192,69.8,100,2,8.66,AU,1619813382
aksu,41.1231,80.2644,69.46,13,0,4.12,CN,1619813382
waingapu,-9.6567,120.2641,77.0,86,11,5.79,ID,1619813188
kalemie,-5.9475,29.1947,71.96,83,97,1.43,CD,1619813383
orshanka,56.9161,47.8933,49.53,65,100,18.34,RU,1619813383
madimba,-10.4,40.3333,77.0,94,20,9.22,TZ,1619813383
port macquarie,-31.4333,152.9167,57.0,99,24,1.01,AU,1619813199
kulachi,31.9286,70.4592,84.88,31,68,6.4,PK,1619813383
mandalgovi,45.7625,106.2708,37.54,53,100,6.62,MN,1619813384
vila,42.0304,-8.1588,51.01,71,53,5.99,PT,1619813384
hornepayne,49.2138,-84.7705,45.07,32,31,12.88,CA,1619813384
mayo,38.8876,-76.5119,71.6,23,40,19.57,US,1619813384
esmeraldas,-19.7625,-44.3139,77.0,56,20,13.8,BR,1619813385
wodonga,-36.1167,146.8833,46.99,100,0,4.27,AU,1619813385
kuldur,49.2167,131.6333,35.83,90,94,2.28,RU,1619813385
beyneu,45.3167,55.2,63.64,20,100,12.46,KZ,1619813385
la ronge,55.1001,-105.2842,50.0,46,99,9.22,CA,1619813386
hue,16.4667,107.6,77.0,94,20,1.14,VN,1619813386
shalakusha,62.2247,40.2539,33.69,94,98,3.22,RU,1619813386
roald,62.5833,6.1333,37.4,81,75,10.36,NO,1619813386
san isidro,-12.1167,-77.05,72.0,77,40,10.36,PE,1619813387
shingu,33.7333,135.9833,52.95,66,7,3.76,JP,1619813387
khash,28.2211,61.2158,66.69,50,100,3.4,IR,1619813387
belmonte,-15.8631,-38.8828,77.0,69,40,5.75,BR,1619813387
guiong,6.4186,122.0258,79.68,83,23,0.67,PH,1619813388
punganuru,13.3667,78.5833,74.03,85,1,6.49,IN,1619813388
antri,26.0567,78.2144,86.97,18,6,7.7,IN,1619813388
buala,-8.145,159.5921,79.66,79,100,4.59,SB,1619813388
leczyca,52.0596,19.1997,45.0,93,94,3.53,PL,1619813389
buenos aires,-34.6132,-58.3772,73.99,56,0,6.91,AR,1619813292
stranraer,54.9023,-5.0273,46.0,61,60,5.75,GB,1619813389
sarandi,-23.4436,-51.8739,78.8,41,20,11.5,BR,1619813389
shitanjing,39.2342,106.3439,53.56,29,0,4.85,CN,1619813389
kyshtym,55.714,60.5528,35.11,72,44,3.87,RU,1619813390
masvingo,-20.0637,30.8277,63.55,83,79,4.0,ZW,1619813390
trelew,-43.249,-65.3051,73.31,19,100,4.88,AR,1619813340
maku,39.2911,44.4521,60.39,59,100,2.48,IR,1619813390
basco,20.4487,121.9702,78.62,78,0,7.54,PH,1619813390
flin flon,54.7682,-101.865,42.8,42,90,9.22,CA,1619813391
imbituba,-28.24,-48.6703,73.4,60,0,9.22,BR,1619813391
burgos,42.3394,-3.7079,43.0,87,90,11.5,ES,1619813391
forio,40.7342,13.8646,69.8,43,0,2.3,IT,1619813391
bandarbeyla,9.4942,50.8122,83.1,75,79,7.34,SO,1619813392
bardiyah,31.7561,25.0865,74.98,44,5,9.17,LY,1619813392
kurchum,48.5722,83.6542,55.36,67,99,12.35,KZ,1619813392
abu kamal,34.4506,40.9171,80.13,30,12,17.92,SY,1619813392
burns lake,54.2331,-125.7533,50.0,53,100,11.5,CA,1619813393
talnakh,69.4865,88.3972,16.05,81,15,3.31,RU,1619813227
tongchuan,35.0806,109.0897,57.81,27,0,2.68,CN,1619813393
zavet,43.7667,26.6667,64.99,60,89,6.8,BG,1619813393
gunjur,13.2019,-16.7339,75.2,69,0,11.5,GM,1619813393
mae hong son,19.3003,97.9685,74.16,90,59,1.66,TH,1619813125
nizhniy kuranakh,58.8353,125.4869,30.51,99,100,0.87,RU,1619813394
novo aripuana,-5.1206,-60.3797,82.13,91,81,0.92,BR,1619813394
marienburg,54.0359,19.0266,41.0,100,100,6.06,PL,1619813394
thunder bay,48.4001,-89.3168,55.4,18,20,10.36,CA,1619813370
hualmay,-11.0964,-77.6139,71.6,74,30,7.78,PE,1619813241
hulyaypole,47.6653,36.2578,57.97,78,100,7.56,UA,1619813394
coos bay,43.3665,-124.2179,63.0,72,1,10.36,US,1619813395
kirakira,-10.4544,161.9205,78.49,87,100,7.36,SB,1619813395
evensk,61.95,159.2333,27.41,78,62,10.56,RU,1619813395
stantsionno-oyashinskiy,55.4664,83.8245,45.0,53,47,6.82,RU,1619813395
udachnyy,66.4167,112.4,27.12,99,100,4.03,RU,1619813396
bridlington,54.0831,-0.1919,43.0,87,39,3.44,GB,1619813396
nishihara,26.1842,127.7558,71.6,83,75,9.22,JP,1619813396
atar,20.5169,-13.0499,87.87,17,0,9.1,MR,1619813396
ofunato,39.0717,141.7167,44.6,84,2,8.05,JP,1619813397
ayan,56.45,138.1667,30.34,97,100,14.79,RU,1619813396
muros,42.7762,-9.0603,53.01,70,3,5.01,ES,1619813397
san juan,-31.5375,-68.5364,79.36,26,6,6.42,AR,1619813397
riyadh,24.6877,46.7219,91.4,13,0,6.91,SA,1619813248
muisne,0.6,-80.0333,77.79,85,100,3.83,EC,1619813398
key largo,25.0865,-80.4473,89.01,58,2,5.99,US,1619813294
ville-marie,47.3335,-79.433,30.2,86,90,25.32,CA,1619813398
touros,-5.1989,-35.4608,80.6,83,40,5.75,BR,1619813398
akureyri,65.6835,-18.0878,33.8,93,90,12.66,IS,1619813398
arona,28.0996,-16.681,69.8,52,75,12.66,ES,1619813398
amur,54.0,128.0,22.26,97,100,1.57,RU,1619813399
yining,29.0361,114.5636,65.3,78,0,2.24,CN,1619813399
sur,22.5667,59.5289,85.24,39,61,7.96,OM,1619813399
ugoofaaru,5.6667,73.0,83.52,75,39,5.77,MV,1619813400
ambulu,-8.345,113.6058,73.99,87,62,2.57,ID,1619813400
vostok,46.4856,135.8833,31.66,85,0,1.3,RU,1619813400
kitakata,37.65,139.8667,52.0,69,83,2.75,JP,1619813400
myrtle beach,33.6891,-78.8867,80.01,34,1,14.97,US,1619813354
sayyan,15.1718,44.3244,57.47,70,100,3.76,YE,1619813401
senanga,-16.1167,23.2667,67.1,80,95,2.62,ZM,1619813401
santarem,-2.4431,-54.7083,78.8,89,75,9.22,BR,1619813401
yumen,40.2833,97.2,62.87,11,91,5.66,CN,1619813402
glen allen,37.666,-77.5064,77.0,19,1,20.71,US,1619813402
dubbo,-32.25,148.6167,50.0,93,0,9.22,AU,1619813402
itatuba,-7.375,-35.6283,78.8,69,75,12.66,BR,1619813402
oksfjord,70.2396,22.3479,26.6,93,90,27.63,NO,1619813403
china,25.7,-99.2333,77.14,53,99,19.42,MX,1619813403
shigony,53.3875,48.6777,50.31,59,96,11.5,RU,1619813403
saint anthony,45.0205,-93.218,61.0,26,1,2.62,US,1619813219
diebougou,10.9667,-3.25,92.79,30,69,5.64,BF,1619813403
mareeba,-17.0,145.4333,71.6,83,75,6.91,AU,1619813404
onufriyivka,48.9072,33.4487,57.34,72,100,9.06,UA,1619813404
havre-saint-pierre,50.2334,-63.5986,44.6,76,90,13.8,CA,1619813404
belyy yar,53.6039,91.3903,39.2,70,0,4.47,RU,1619813404
kailua,21.4022,-157.7394,80.6,73,90,11.5,US,1619813405
ahmadpur,18.7,76.9333,86.56,31,69,7.34,IN,1619813405
road town,18.4167,-64.6167,82.4,65,40,10.36,VG,1619813149
dedza,-14.3779,34.3332,58.57,88,5,1.97,MW,1619813405
okha,53.5739,142.9478,30.85,87,100,7.67,RU,1619813405
